{
  "restaurant": [
    {
      "title" : "Samareukan",
      "title_kor": "사마르칸",
      "lat": 35.15257841796869,
      "lng": 129.11713656815547,
      "addr": "부산 동구 중앙대로 225",
      "tel":"051-466-4734",
      "introduction":"우즈베키스탄인 주인이 내는 정통 우즈베키스탄 음식을 맛볼 수 있다. 만두, 꼬치, 샐러드, 빵의 종류도 다양하게 준비되어 있어 음식 선택의 폭이 한결 넓다. 매장 한쪽에는 우즈베키스탄 스낵이나 음료도 판매하고 있다."
    },
    {
      "title" : "myeonoffice",
      "title_kor": "면사무소",  
      "lat": 35.17899085868483,
      "lng": 129.19755955636225,
      "addr": "부산광역시 동래구 충렬대로140번길 25",
      "tel":"051-504-5459",
      "introduction":"사골 칼국수를 전문으로 하는 식당이다. 육수는 12시간에 걸쳐 뽑은 사골에 한약재를 넣고 다시 끓여 낸다. 육수 맛은 밀면 육수에 가까운 맛이라 독특하다. 국수 면은 일반면과 메밀면 중에서 고를 수 있다. 차가운 메밀 막국수는 별도의 따뜻한 사골 국물과 함께 나온다."
    },
    {
      "title" : "Yeonjeribs",
      "title_kor": "연제갈비",    
      "lat": 35.26180094188082,
      "lng": 129.23341320428366,
      "addr": "부산시 연제구 거제1동 386-30",
      "tel":"051-507-9292",
      "introduction":"갈비 전문식당이다. 맛이 있든없든 그냥 주는데로 먹길 바란다."
    },
    {
      "title" : "Busanizakaya",
      "title_kor": "부산이자카야",    
      "lat": 35.04888810149369,
      "lng": 128.9641500034307,
      "addr": "부산광역시 사하구 다송로72번길 63 예원프라자",
      "tel":"010-9031-9494",
      "introduction":"다대포 라브랜드에 위치한 간단히 먹기 좋은 이자까야 주메뉴는 활어회이며 그외에도 간단한 탕과 단품요리가 준비되어 있으니 연인,가족들과 부담없이 찾기좋은 그곳.."
    },
    {
      "title" : "Gudeumiel",
      "title_kor": "구드미엘",    
      "lat": 35.074085805045705,
      "lng": 129.01573785409013,
      "addr": "부산광역시 해운대구 센텀동로 90 센텀필2",
      "tel":"051-781-1510",
      "introduction":"작고 따뜻한 부엌 구드미엘입니다. 구드미엘은 한식우동, 채반모밀, 톳밥등을 준비해 놓고 여러분을 기다립니다. 소박하고 따뜻한 식사에 초대합니다."
    }
  ]
}