{
  "positions": [
    {
      "no": 1,
      "title": "Seoul",
      "title_kor" : "서울",
      "lat": 37.56291931905458,
      "lng": 126.96396200459847
    },
    {
    "no": 2,
      "title": "Incheon",  
      "title_kor": "인천",  
      "lat": 37.38705950333699,
      "lng": 126.6345019555263
    },
    {
    "no": 3,
      "title": "Daejeon",    
      "title_kor": "대전",    
      "lat": 36.34892908013804,
      "lng": 127.38660934749737
    },
    {
    "no": 4,
      "title": "Gwangju",    
      "title_kor": "광주",    
      "lat": 35.16814536202142,
      "lng": 126.84702704349598
    },
    {
    "no": 5,
      "title": "Jeonju",    
      "title_kor": "전주",    
      "lat": 35.823441195752714,
      "lng": 127.14607543899709
    },
    {
    "no": 6,
      "title": "Daegu",    
      "title_kor": "대구",    
      "lat": 35.863668789202755,
      "lng": 128.59730175915732
    },
    {
    "no": 7,
      "title": "Busan",    
      "title_kor": "부산",    
      "lat": 35.16877535384461,
      "lng": 129.08370044538546
    },
    {
    "no": 8,
      "title": "Ulsan",    
      "title_kor": "울산",    
      "lat": 35.52831819932813,
      "lng": 129.35257071023455
    },
    {
    "no": 9,
      "title": "Yeosu",    
      "title_kor": "여수",    
      "lat": 34.75565482444031,
      "lng": 127.66981621265785
    },
    {    
    "no": 10,
      "title": "Tongyeong",
      "title_kor": "통영",
      "lat": 34.8647693264188,
      "lng": 128.40417949546767
    },
    {    
    "no": 11,
      "title": "Gangneung",
      "title_kor": "강릉",
      "lat": 37.76964963321001,
      "lng": 128.86111982765598
    },
    {    
    "no": 12,
      "title": "Sokcho",
      "title_kor": "속초",
      "lat": 38.21665505375484,
      "lng": 128.5713888614871
    },
    {    
    "no": 13,
      "title": "Jino",
      "title_kor": "진도",
      "lat": 34.46435398349828,
      "lng": 126.2381369978368
    },  
    {    
    "no": 14,
      "title": "Pohang",
      "title_kor": "포항",
      "lat": 36.05672849297255,
      "lng": 129.34264104605725
    },  
    {    
    "no": 15,
      "title": "Geoje",
      "title_kor": "거제",
      "lat": 34.87301774937933,
      "lng": 128.66468593211258
    },  
    {    
    "no": 16,
      "title": "Cheonan",
      "title_kor": "천안",
      "lat": 36.82932093621976,
      "lng": 127.1336169272109
    },  
    {    
    "no": 17,
      "title": "Mokpo",
      "title_kor": "목포",
      "lat": 34.82516182651343,
      "lng": 126.38313911684916
    },  
    {    
    "no": 18,
      "title": "Chuncheon",
      "title_kor": "춘천",
      "lat": 37.87424066890834,
      "lng": 127.74650903498228
    },  
    {    
    "no": 19,
      "title": "Chungju",
      "title_kor": "충주",
      "lat": 36.994345688096836,
      "lng": 127.90461289599249
    },
    {    
    "no": 20,
      "title": "Andong",
      "title_kor": "안동",
      "lat": 36.56750534948688,
      "lng": 128.74321584335337
    }
  ]
}